[
  { "id": 1, "name": "Luxury Villa in Bali", "location": "Bali, Indonesia", "latitude": -8.3405, "longitude": 115.092 },
  { "id": 2, "name": "Penthouse in New York", "location": "New York, USA", "latitude": 40.7128, "longitude": -74.006 },
  { "id": 3, "name": "Beach House in Sydney", "location": "Sydney, Australia", "latitude": -33.8688, "longitude": 151.2093 },
  { "id": 4, "name": "Apartment in Dhaka", "location": "Dhaka, Bangladesh", "latitude": 23.8103, "longitude": 90.4125 },
  { "id": 5, "name": "Countryside Home in Tuscany", "location": "Tuscany, Italy", "latitude": 43.7711, "longitude": 11.2486 },
  { "id": 6, "name": "Modern Loft in Tokyo", "location": "Tokyo, Japan", "latitude": 35.6895, "longitude": 139.6917 },
  { "id": 7, "name": "Lakeview Cabin in Canada", "location": "Banff, Canada", "latitude": 51.1784, "longitude": -115.5708 },
  { "id": 8, "name": "Desert Retreat in Dubai", "location": "Dubai, UAE", "latitude": 25.2048, "longitude": 55.2708 },
  { "id": 9, "name": "Colonial House in Havana", "location": "Havana, Cuba", "latitude": 23.1136, "longitude": -82.3666 },
  { "id": 10, "name": "Eco Lodge in Costa Rica", "location": "San José, Costa Rica", "latitude": 9.9281, "longitude": -84.0907 },
  { "id": 11, "name": "Ski Chalet in Switzerland", "location": "Zermatt, Switzerland", "latitude": 46.0207, "longitude": 7.7491 },
  { "id": 12, "name": "Historic Flat in Paris", "location": "Paris, France", "latitude": 48.8566, "longitude": 2.3522 },
  { "id": 13, "name": "Jungle Bungalow in Brazil", "location": "Manaus, Brazil", "latitude": -3.119, "longitude": -60.0217 },
  { "id": 14, "name": "City Condo in Seoul", "location": "Seoul, South Korea", "latitude": 37.5665, "longitude": 126.978 },
  { "id": 15, "name": "Mountain Lodge in Nepal", "location": "Pokhara, Nepal", "latitude": 28.2096, "longitude": 83.9856 },
  { "id": 16, "name": "Island Villa in Maldives", "location": "Malé, Maldives", "latitude": 4.1755, "longitude": 73.5093 },
  { "id": 17, "name": "Riverside Home in Vietnam", "location": "Hoi An, Vietnam", "latitude": 15.8801, "longitude": 108.338 },
  { "id": 18, "name": "Modern Flat in London", "location": "London, UK", "latitude": 51.5074, "longitude": -0.1278 },
  { "id": 19, "name": "Safari Lodge in Kenya", "location": "Nairobi, Kenya", "latitude": -1.2921, "longitude": 36.8219 },
  { "id": 20, "name": "Clifftop House in Cape Town", "location": "Cape Town, South Africa", "latitude": -33.9249, "longitude": 18.4241 },
  { "id": 21, "name": "Studio in Berlin", "location": "Berlin, Germany", "latitude": 52.52, "longitude": 13.405 },
  { "id": 22, "name": "Cottage in Scotland", "location": "Inverness, Scotland", "latitude": 57.4778, "longitude": -4.2247 },
  { "id": 23, "name": "Farmhouse in Argentina", "location": "Mendoza, Argentina", "latitude": -32.8895, "longitude": -68.8458 },
  { "id": 24, "name": "Hilltop Villa in Greece", "location": "Santorini, Greece", "latitude": 36.3932, "longitude": 25.4615 },
  { "id": 25, "name": "City Apartment in Istanbul", "location": "Istanbul, Turkey", "latitude": 41.0082, "longitude": 28.9784 },
  { "id": 26, "name": "Luxury Flat in Singapore", "location": "Singapore", "latitude": 1.3521, "longitude": 103.8198 },
  { "id": 27, "name": "Historic Home in Prague", "location": "Prague, Czech Republic", "latitude": 50.0755, "longitude": 14.4378 },
  { "id": 28, "name": "Desert Camp in Morocco", "location": "Merzouga, Morocco", "latitude": 31.1001, "longitude": -4.0117 },
  { "id": 29, "name": "Forest Cabin in Oregon", "location": "Bend, Oregon, USA", "latitude": 44.0582, "longitude": -121.3153 },
  { "id": 30, "name": "Seaside Villa in Portugal", "location": "Lagos, Portugal", "latitude": 37.102, "longitude": -8.6742 }
]